mwlinkCode: "10001"
mwlinkName: "Ibrahimpur-Dental College"
site1AltitudeFt: 32.8084
site1Code: "NA"
site1Latitude: 23.795675
site1Longitude: 90.383286
site1Nname: "Ibrahimpur"
site2AltitudeFt: 32.8084
site2Code: "NA"
site2Llatitude: 23.79615
site2Longitude: 90.390671
site2Nname:

{"mwlinkCode":"10001","mwlinkName":"Ibrahimpur-Dental College","site1Code":"NA","site1Nname":"Ibrahimpur","site1Latitude":23.795675,"site1Longitude":90.383286,"site1AltitudeFt":32.8084,"site2Code":"NA","site2Nname":"Dental College","site2Llatitude":23.79615,"site2Longitude":90.390671,"site2AltitudeFt":32.8084},
{"mwlinkCode":"10002","mwlinkName":"Lemua-Bariyerhat","site1Code":"NA","site1Nname":"Lemua","site1Latitude":22.96043,"site1Longitude":91.45192,"site1AltitudeFt":32.8084,"site2Code":"NA","site2Nname":"Bariyerhat","site2Llatitude":22.894913,"site2Longitude":91.534798,"site2AltitudeFt":32.8084},
{"mwlinkCode":"10003","mwlinkName":"Faruk Chamber-Mark Fashion","site1Code":"NA","site1Nname":"Faruk Chamber","site1Latitude":22.333796,"site1Longitude":91.812187,"site1AltitudeFt":32.8084,"site2Code":"NA","site2Nname":"Mark Fashion","site2Llatitude":22.337826,"site2Longitude":91.83638,"site2AltitudeFt":32.8084},
{"mwlinkCode":"10004","mwlinkName":"Gulshan-Badda2","site1Code":"NA","site1Nname":"Gulshan","site1Latitude":23.783625,"site1Longitude":90.417336,"site1AltitudeFt":32.8084,"site2Code":"NA","site2Nname":"Badda2","site2Llatitude":23.776501,"site2Longitude":90.428024,"site2AltitudeFt":32.8084},
{"mwlinkCode":"10005","mwlinkName":"Jowarshahara-Kuril","site1Code":"NA","site1Nname":"Jowarshahara","site1Latitude":23.820093,"site1Longitude":90.418137,"site1AltitudeFt":32.8084,"site2Code":"NA","site2Nname":"Kuril","site2Llatitude":23.816622,"site2Longitude":90.42083,"site2AltitudeFt":32.8084},
{"mwlinkCode":"10006","mwlinkName":"Kazipara-Sewrapara","site1Code":"NA","site1Nname":"Kazipara","site1Latitude":23.798754,"site1Longitude":90.368813,"site1AltitudeFt":32.8084,"site2Code":"NA","site2Nname":"Sewrapara","site2Llatitude":23.792574,"site2Longitude":90.372849,"site2AltitudeFt":32.8084},
{"mwlinkCode":"10007","mwlinkName":"Laxmipur, Rajshahi-Shaheb Bazar","site1Code":"NA","site1Nname":"Laxmipur, Rajshahi","site1Latitude":24.370256,"site1Longitude":88.582008,"site1AltitudeFt":32.8084,"site2Code":"NA","site2Nname":"Shaheb Bazar","site2Llatitude":24.365976,"site2Longitude":88.600029,"site2AltitudeFt":32.8084},
{"mwlinkCode":"10008","mwlinkName":"Thakurgaon-Hotel Sadik","site1Code":"NA","site1Nname":"Thakurgaon","site1Latitude":26.034077,"site1Longitude":88.462563,"site1AltitudeFt":32.8084,"site2Code":"NA","site2Nname":"Hotel Sadik","site2Llatitude":26.028744,"site2Longitude":88.477837,"site2AltitudeFt":32.8084},
{"mwlinkCode":"10009","mwlinkName":"Barura-Alekharchar","site1Code":"NA","site1Nname":"Barura","site1Latitude":23.376364,"site1Longitude":91.054375,"site1AltitudeFt":32.8084,"site2Code":"NA","site2Nname":"Alekharchar","site2Llatitude":23.47471,"site2Longitude":91.138336,"site2AltitudeFt":32.8084},
{"mwlinkCode":"10010","mwlinkName":"Board Bazar-Abdullahpur","site1Code":"NA","site1Nname":"Board Bazar","site1Latitude":23.944944,"site1Longitude":90.383301,"site1AltitudeFt":32.8084,"site2Code":"NA","site2Nname":"Abdullahpur","site2Llatitude":23.890224,"site2Longitude":90.401802,"site2AltitudeFt":32.8084},
{"mwlinkCode":"10011","mwlinkName":"Shahajadpur-Bhatara","site1Code":"NA","site1Nname":"Shahajadpur","site1Latitude":23.794456,"site1Longitude":90.425163,"site1AltitudeFt":32.8084,"site2Code":"NA","site2Nname":"Bhatara","site2Llatitude":23.799845,"site2Longitude":90.429054,"site2AltitudeFt":32.8084},
{"mwlinkCode":"10012","mwlinkName":"Shankor-Dhanmondi2","site1Code":"NA","site1Nname":"Shankor","site1Latitude":23.75222,"site1Longitude":90.363464,"site1AltitudeFt":32.8084,"site2Code":"NA","site2Nname":"Dhanmondi2","site2Llatitude":23.752867,"site2Longitude":90.37117,"site2AltitudeFt":32.8084},
{"mwlinkCode":"10013","mwlinkName":"Aminbazar-Gabtoli","site1Code":"NA","site1Nname":"Aminbazar","site1Latitude":23.786345,"site1Longitude":90.332756,"site1AltitudeFt":32.8084,"site2Code":"NA","site2Nname":"Gabtoli","site2Llatitude":23.784317,"site2Longitude":90.340729,"site2AltitudeFt":32.8084},
{"mwlinkCode":"10014","mwlinkName":"Adabor-Shyamoli","site1Code":"NA","site1Nname":"Adabor","site1Latitude":23.771151,"site1Longitude":90.356537,"site1AltitudeFt":32.8084,"site2Code":"NA","site2Nname":"Shyamoli","site2Llatitude":23.772318,"site2Longitude":90.364868,"site2AltitudeFt":32.8084},
{"mwlinkCode":"10015","mwlinkName":"Kajla-Baneswar","site1Code":"NA","site1Nname":"Kajla","site1Latitude":24.368814,"site1Longitude":88.624466,"site1AltitudeFt":32.8084,"site2Code":"NA","site2Nname":"Baneswar","site2Llatitude":24.369701,"site2Longitude":88.758972,"site2AltitudeFt":32.8084},
{"mwlinkCode":"10016","mwlinkName":"Patuakhali-Golachipa","site1Code":"NA","site1Nname":"Patuakhali","site1Latitude":22.362474,"site1Longitude":90.347176,"site1AltitudeFt":32.8084,"site2Code":"NA","site2Nname":"Golachipa","site2Llatitude":22.17103,"site2Longitude":90.406334,"site2AltitudeFt":32.8084},
{"mwlinkCode":"10017","mwlinkName":"Jhalkathi-Nolchhity","site1Code":"NA","site1Nname":"Jhalkathi","site1Latitude":22.642488,"site1Longitude":90.200119,"site1AltitudeFt":32.8084,"site2Code":"NA","site2Nname":"Nolchhity","site2Llatitude":22.63813,"site2Longitude":90.271042,"site2AltitudeFt":32.8084},
{"mwlinkCode":"10018","mwlinkName":"Amin ( Kalu Ghat )-Nozumiar Hat","site1Code":"NA","site1Nname":"Amin ( Kalu Ghat )","site1Latitude":22.378809,"site1Longitude":91.853638,"site1AltitudeFt":32.8084,"site2Code":"NA","site2Nname":"Nozumiar Hat","site2Llatitude":22.419817,"site2Longitude":91.867363,"site2AltitudeFt":32.8084},
{"mwlinkCode":"10019","mwlinkName":"Homna-Gauripur","site1Code":"NA","site1Nname":"Homna","site1Latitude":23.681129,"site1Longitude":90.778992,"site1AltitudeFt":32.8084,"site2Code":"NA","site2Nname":"Gauripur","site2Llatitude":23.527431,"site2Longitude":90.782234,"site2AltitudeFt":32.8084},
{"mwlinkCode":"10020","mwlinkName":"Kanchpur-Gauripur","site1Code":"NA","site1Nname":"Kanchpur","site1Latitude":23.712099,"site1Longitude":90.518204,"site1AltitudeFt":32.8084,"site2Code":"NA","site2Nname":"Gauripur","site2Llatitude":23.527431,"site2Longitude":90.782234,"site2AltitudeFt":32.8084},
{"mwlinkCode":"10021","mwlinkName":"Shafipur-Mascot","site1Code":"NA","site1Nname":"Shafipur","site1Latitude":24.024378,"site1Longitude":90.277588,"site1AltitudeFt":32.8084,"site2Code":"NA","site2Nname":"Mascot","site2Llatitude":23.874201,"site2Longitude":90.399918,"site2AltitudeFt":32.8084},
{"mwlinkCode":"10022","mwlinkName":"Mascot-Gazipur","site1Code":"NA","site1Nname":"Mascot","site1Latitude":23.874201,"site1Longitude":90.399918,"site1AltitudeFt":32.8084,"site2Code":"NA","site2Nname":"Gazipur","site2Llatitude":24.000551,"site2Longitude":90.420662,"site2AltitudeFt":32.8084},
{"mwlinkCode":"10023","mwlinkName":"Uttara Sec 4-Airport","site1Code":"NA","site1Nname":"Uttara Sec 4","site1Latitude":23.863806,"site1Longitude":90.403854,"site1AltitudeFt":32.8084,"site2Code":"NA","site2Nname":"Airport","site2Llatitude":23.85948,"site2Longitude":90.404556,"site2AltitudeFt":32.8084},
{"mwlinkCode":"10024","mwlinkName":"Wapda Road-East_Rampura","site1Code":"NA","site1Nname":"Wapda Road","site1Latitude":23.762737,"site1Longitude":90.417389,"site1AltitudeFt":32.8084,"site2Code":"NA","site2Nname":"East_Rampura","site2Llatitude":23.761765,"site2Longitude":90.423553,"site2AltitudeFt":32.8084},
{"mwlinkCode":"10025","mwlinkName":"Gulshan 63-Gulshan Rd 60","site1Code":"NA","site1Nname":"Gulshan 63","site1Latitude":23.804623,"site1Longitude":90.408363,"site1AltitudeFt":32.8084,"site2Code":"NA","site2Nname":"Gulshan Rd 60","site2Llatitude":23.799816,"site2Longitude":90.4105,"site2AltitudeFt":32.8084},
{"mwlinkCode":"10026","mwlinkName":"Chainabldg-Horomohonsheel","site1Code":"NA","site1Nname":"Chainabldg","site1Latitude":23.724712,"site1Longitude":90.383286,"site1AltitudeFt":32.8084,"site2Code":"NA","site2Nname":"Horomohonsheel","site2Llatitude":23.72049,"site2Longitude":90.383835,"site2AltitudeFt":32.8084},
{"mwlinkCode":"10027","mwlinkName":"KDA Avenue-Gagon Babu Rd","site1Code":"NA","site1Nname":"KDA Avenue","site1Latitude":22.810213,"site1Longitude":89.559219,"site1AltitudeFt":32.8084,"site2Code":"NA","site2Nname":"Gagon Babu Rd","site2Llatitude":22.810884,"site2Longitude":89.57608,"site2AltitudeFt":32.8084},
{"mwlinkCode":"10028","mwlinkName":"Keshobpur-Monirampur","site1Code":"NA","site1Nname":"Keshobpur","site1Latitude":22.907547,"site1Longitude":89.219208,"site1AltitudeFt":32.8084,"site2Code":"NA","site2Nname":"Monirampur","site2Llatitude":23.020943,"site2Longitude":89.232986,"site2AltitudeFt":32.8084},
{"mwlinkCode":"10029","mwlinkName":"Nirala-KDA Avenue","site1Code":"NA","site1Nname":"Nirala","site1Latitude":22.800129,"site1Longitude":89.55555,"site1AltitudeFt":32.8084,"site2Code":"NA","site2Nname":"KDA Avenue","site2Llatitude":22.810213,"site2Longitude":89.559219,"site2AltitudeFt":32.8084},
{"mwlinkCode":"10030","mwlinkName":"Kustia BTTB-Kumarkhali","site1Code":"NA","site1Nname":"Kustia BTTB","site1Latitude":23.908886,"site1Longitude":89.121063,"site1AltitudeFt":32.8084,"site2Code":"NA","site2Nname":"Kumarkhali","site2Llatitude":23.857857,"site2Longitude":89.238701,"site2AltitudeFt":32.8084},
{"mwlinkCode":"10031","mwlinkName":"Hobirbari-Bhaluka","site1Code":"NA","site1Nname":"Hobirbari","site1Latitude":24.307329,"site1Longitude":90.385323,"site1AltitudeFt":32.8084,"site2Code":"NA","site2Nname":"Bhaluka","site2Llatitude":24.404821,"site2Longitude":90.385796,"site2AltitudeFt":32.8084},
{"mwlinkCode":"10032","mwlinkName":"Mirzapur-Kaliakoir","site1Code":"NA","site1Nname":"Mirzapur","site1Latitude":24.104092,"site1Longitude":90.097725,"site1AltitudeFt":32.8084,"site2Code":"NA","site2Nname":"Kaliakoir","site2Llatitude":24.073069,"site2Longitude":90.212463,"site2AltitudeFt":32.8084},
{"mwlinkCode":"10033","mwlinkName":"Ghatail-Madhupur BTTB","site1Code":"NA","site1Nname":"Ghatail","site1Latitude":24.481361,"site1Longitude":89.975998,"site1AltitudeFt":32.8084,"site2Code":"NA","site2Nname":"Madhupur BTTB","site2Llatitude":24.602194,"site2Longitude":90.034584,"site2AltitudeFt":32.8084},
{"mwlinkCode":"10034","mwlinkName":"Rangpur BTTB-Rajanigandha","site1Code":"NA","site1Nname":"Rangpur BTTB","site1Latitude":25.754356,"site1Longitude":89.245094,"site1AltitudeFt":32.8084,"site2Code":"NA","site2Nname":"Rajanigandha","site2Llatitude":25.749268,"site2Longitude":89.254509,"site2AltitudeFt":32.8084},
{"mwlinkCode":"10035","mwlinkName":"Moulvibazar BTTB-Maulavibazar","site1Code":"NA","site1Nname":"Moulvibazar BTTB","site1Latitude":24.479927,"site1Longitude":91.765678,"site1AltitudeFt":32.8084,"site2Code":"NA","site2Nname":"Maulavibazar","site2Llatitude":24.488678,"site2Longitude":91.768814,"site2AltitudeFt":32.8084},
{"mwlinkCode":"10036","mwlinkName":"Gopalganj-Kotalipara","site1Code":"NA","site1Nname":"Gopalganj","site1Latitude":23.008621,"site1Longitude":89.830643,"site1AltitudeFt":32.8084,"site2Code":"NA","site2Nname":"Kotalipara","site2Llatitude":22.993225,"site2Longitude":89.990883,"site2AltitudeFt":32.8084},
{"mwlinkCode":"10037","mwlinkName":"Lemua-Wahidpur","site1Code":"NA","site1Nname":"Lemua","site1Latitude":22.96043,"site1Longitude":91.45192,"site1AltitudeFt":32.8084,"site2Code":"NA","site2Nname":"Wahidpur","site2Llatitude":22.688042,"site2Longitude":91.622093,"site2AltitudeFt":32.8084},
{"mwlinkCode":"10038","mwlinkName":"Lemua-Wahidpur","site1Code":"NA","site1Nname":"Lemua","site1Latitude":22.96043,"site1Longitude":91.45192,"site1AltitudeFt":32.8084,"site2Code":"NA","site2Nname":"Wahidpur","site2Llatitude":22.688042,"site2Longitude":91.622093,"site2AltitudeFt":32.8084},
{"mwlinkCode":"10039","mwlinkName":"Fauzdarhat-Faruk Chamber","site1Code":"NA","site1Nname":"Fauzdarhat","site1Latitude":22.403667,"site1Longitude":91.751358,"site1AltitudeFt":32.8084,"site2Code":"NA","site2Nname":"Faruk Chamber","site2Llatitude":22.333796,"site2Longitude":91.812187,"site2AltitudeFt":32.8084},
{"mwlinkCode":"10040","mwlinkName":"Mirersharai-Wahidpur","site1Code":"NA","site1Nname":"Mirersharai","site1Latitude":22.780117,"site1Longitude":91.571678,"site1AltitudeFt":32.8084,"site2Code":"NA","site2Nname":"Wahidpur","site2Llatitude":22.688042,"site2Longitude":91.622093,"site2AltitudeFt":32.8084},
{"mwlinkCode":"10041","mwlinkName":"Chiringa_BTCL-Chokoria","site1Code":"NA","site1Nname":"Chiringa_BTCL","site1Latitude":21.801926,"site1Longitude":92.074448,"site1AltitudeFt":32.8084,"site2Code":"NA","site2Nname":"Chokoria","site2Llatitude":21.763962,"site2Longitude":92.075897,"site2AltitudeFt":32.8084},
{"mwlinkCode":"10042","mwlinkName":"Gauripur-Alekharchar","site1Code":"NA","site1Nname":"Gauripur","site1Latitude":23.527431,"site1Longitude":90.782234,"site1AltitudeFt":32.8084,"site2Code":"NA","site2Nname":"Alekharchar","site2Llatitude":23.47471,"site2Longitude":91.138336,"site2AltitudeFt":32.8084},
{"mwlinkCode":"10043","mwlinkName":"Gauripur-Alekharchar","site1Code":"NA","site1Nname":"Gauripur","site1Latitude":23.527431,"site1Longitude":90.782234,"site1AltitudeFt":32.8084,"site2Code":"NA","site2Nname":"Alekharchar","site2Llatitude":23.47471,"site2Longitude":91.138336,"site2AltitudeFt":32.8084},
{"mwlinkCode":"10044","mwlinkName":"Alekharchar-Falgunkara","site1Code":"NA","site1Nname":"Alekharchar","site1Latitude":23.47471,"site1Longitude":91.138336,"site1AltitudeFt":32.8084,"site2Code":"NA","site2Nname":"Falgunkara","site2Llatitude":23.210472,"site2Longitude":91.312279,"site2AltitudeFt":32.8084},
{"mwlinkCode":"10045","mwlinkName":"Alekharchar-Falgunkara","site1Code":"NA","site1Nname":"Alekharchar","site1Latitude":23.47471,"site1Longitude":91.138336,"site1AltitudeFt":32.8084,"site2Code":"NA","site2Nname":"Falgunkara","site2Llatitude":23.210472,"site2Longitude":91.312279,"site2AltitudeFt":32.8084},
{"mwlinkCode":"10046","mwlinkName":"Sonaimuri-Falgunkara","site1Code":"NA","site1Nname":"Sonaimuri","site1Latitude":23.038225,"site1Longitude":91.09668,"site1AltitudeFt":32.8084,"site2Code":"NA","site2Nname":"Falgunkara","site2Llatitude":23.210472,"site2Longitude":91.312279,"site2AltitudeFt":32.8084},
{"mwlinkCode":"10047","mwlinkName":"Falgunkara-Lemua","site1Code":"NA","site1Nname":"Falgunkara","site1Latitude":23.210472,"site1Longitude":91.312279,"site1AltitudeFt":32.8084,"site2Code":"NA","site2Nname":"Lemua","site2Llatitude":22.96043,"site2Longitude":91.45192,"site2AltitudeFt":32.8084},
{"mwlinkCode":"10048","mwlinkName":"Bhudanti Backbone-Saistaganj Backbone","site1Code":"NA","site1Nname":"Bhudanti Backbone","site1Latitude":24.059029,"site1Longitude":91.250893,"site1AltitudeFt":32.8084,"site2Code":"NA","site2Nname":"Saistaganj Backbone","site2Llatitude":24.277008,"site2Longitude":91.470215,"site2AltitudeFt":32.8084},
{"mwlinkCode":"10049","mwlinkName":"Sonagazi-Lemua","site1Code":"NA","site1Nname":"Sonagazi","site1Latitude":22.84786,"site1Longitude":91.387413,"site1AltitudeFt":32.8084,"site2Code":"NA","site2Nname":"Lemua","site2Llatitude":22.96043,"site2Longitude":91.45192,"site2AltitudeFt":32.8084},
{"mwlinkCode":"10050","mwlinkName":"Mascot-Kazi Tower","site1Code":"NA","site1Nname":"Mascot","site1Latitude":23.874201,"site1Longitude":90.399918,"site1AltitudeFt":32.8084,"site2Code":"NA","site2Nname":"Kazi Tower","site2Llatitude":23.815954,"site2Longitude":90.420891,"site2AltitudeFt":32.8084},
{"mwlinkCode":"10051","mwlinkName":"Begumbazar-Naya Bazar","site1Code":"NA","site1Nname":"Begumbazar","site1Latitude":23.716627,"site1Longitude":90.397194,"site1AltitudeFt":32.8084,"site2Code":"NA","site2Nname":"Naya Bazar","site2Llatitude":23.713509,"site2Longitude":90.406807,"site2AltitudeFt":32.8084},
{"mwlinkCode":"10052","mwlinkName":"Pubail-Palash","site1Code":"NA","site1Nname":"Pubail","site1Latitude":23.945278,"site1Longitude":90.487877,"site1AltitudeFt":32.8084,"site2Code":"NA","site2Nname":"Palash","site2Llatitude":23.980835,"site2Longitude":90.645325,"site2AltitudeFt":32.8084},
{"mwlinkCode":"10053","mwlinkName":"Mascot-Abdullahpur","site1Code":"NA","site1Nname":"Mascot","site1Latitude":23.874201,"site1Longitude":90.399918,"site1AltitudeFt":32.8084,"site2Code":"NA","site2Nname":"Abdullahpur","site2Llatitude":23.890224,"site2Longitude":90.401802,"site2AltitudeFt":32.8084},
{"mwlinkCode":"10054","mwlinkName":"Umesh Datta-Chankharpool","site1Code":"NA","site1Nname":"Umesh Datta","site1Latitude":23.720711,"site1Longitude":90.394478,"site1AltitudeFt":32.8084,"site2Code":"NA","site2Nname":"Chankharpool","site2Llatitude":23.72374,"site2Longitude":90.40139,"site2AltitudeFt":32.8084},
{"mwlinkCode":"10055","mwlinkName":"Begumbazar-Chowk_Bazaar","site1Code":"NA","site1Nname":"Begumbazar","site1Latitude":23.716627,"site1Longitude":90.397194,"site1AltitudeFt":32.8084,"site2Code":"NA","site2Nname":"Chowk_Bazaar","site2Llatitude":23.712999,"site2Longitude":90.401917,"site2AltitudeFt":32.8084},
{"mwlinkCode":"10056","mwlinkName":"Mirbagh-East_Rampura","site1Code":"NA","site1Nname":"Mirbagh","site1Latitude":23.758904,"site1Longitude":90.413475,"site1AltitudeFt":32.8084,"site2Code":"NA","site2Nname":"East_Rampura","site2Llatitude":23.761765,"site2Longitude":90.423553,"site2AltitudeFt":32.8084},
{"mwlinkCode":"10057","mwlinkName":"Machotower-Goran","site1Code":"NA","site1Nname":"Machotower","site1Latitude":23.749073,"site1Longitude":90.420189,"site1AltitudeFt":32.8084,"site2Code":"NA","site2Nname":"Goran","site2Llatitude":23.74774,"site2Longitude":90.436943,"site2AltitudeFt":32.8084},
{"mwlinkCode":"10058","mwlinkName":"Bason sarak bazar-Joydebpur","site1Code":"NA","site1Nname":"Bason sarak bazar","site1Latitude":23.973387,"site1Longitude":90.381226,"site1AltitudeFt":32.8084,"site2Code":"NA","site2Nname":"Joydebpur","site2Llatitude":23.993078,"site2Longitude":90.381775,"site2AltitudeFt":32.8084},
{"mwlinkCode":"10059","mwlinkName":"Mukti Sarani-Kanchpur","site1Code":"NA","site1Nname":"Mukti Sarani","site1Latitude":23.696327,"site1Longitude":90.507988,"site1AltitudeFt":32.8084,"site2Code":"NA","site2Nname":"Kanchpur","site2Llatitude":23.712099,"site2Longitude":90.518204,"site2AltitudeFt":32.8084},
{"mwlinkCode":"10060","mwlinkName":"kalachanpur-Kazi Tower","site1Code":"NA","site1Nname":"kalachanpur","site1Latitude":23.809093,"site1Longitude":90.415527,"site1AltitudeFt":32.8084,"site2Code":"NA","site2Nname":"Kazi Tower","site2Llatitude":23.815954,"site2Longitude":90.420891,"site2AltitudeFt":32.8084},
{"mwlinkCode":"10061","mwlinkName":"Bangabandhu-Khanpur","site1Code":"NA","site1Nname":"Bangabandhu","site1Latitude":23.620094,"site1Longitude":90.500603,"site1AltitudeFt":32.8084,"site2Code":"NA","site2Nname":"Khanpur","site2Llatitude":23.626778,"site2Longitude":90.502548,"site2AltitudeFt":32.8084},
{"mwlinkCode":"10062","mwlinkName":"Rupdia bazar-Fultola","site1Code":"NA","site1Nname":"Rupdia bazar","site1Latitude":23.127672,"site1Longitude":89.285286,"site1AltitudeFt":32.8084,"site2Code":"NA","site2Nname":"Fultola","site2Llatitude":22.974665,"site2Longitude":89.47628,"site2AltitudeFt":32.8084},
{"mwlinkCode":"10063","mwlinkName":"Benapole-Navaron","site1Code":"NA","site1Nname":"Benapole","site1Latitude":23.0448,"site1Longitude":88.900383,"site1AltitudeFt":32.8084,"site2Code":"NA","site2Nname":"Navaron","site2Llatitude":23.05847,"site2Longitude":88.998795,"site2AltitudeFt":32.8084},
{"mwlinkCode":"10064","mwlinkName":"Kolaroa-Satkhira","site1Code":"NA","site1Nname":"Kolaroa","site1Latitude":22.861044,"site1Longitude":89.037094,"site1AltitudeFt":32.8084,"site2Code":"NA","site2Nname":"Satkhira","site2Llatitude":22.712126,"site2Longitude":89.07032,"site2AltitudeFt":32.8084},
{"mwlinkCode":"10065","mwlinkName":"KDA Avenue-Sir Iqbal Road","site1Code":"NA","site1Nname":"KDA Avenue","site1Latitude":22.810213,"site1Longitude":89.559219,"site1AltitudeFt":32.8084,"site2Code":"NA","site2Nname":"Sir Iqbal Road","site2Llatitude":22.816242,"site2Longitude":89.563919,"site2AltitudeFt":32.8084},
{"mwlinkCode":"10066","mwlinkName":"Shimakhali-Magura BTTB","site1Code":"NA","site1Nname":"Shimakhali","site1Latitude":23.313419,"site1Longitude":89.305145,"site1AltitudeFt":32.8084,"site2Code":"NA","site2Nname":"Magura BTTB","site2Llatitude":23.48307,"site2Longitude":89.42012,"site2AltitudeFt":32.8084},
{"mwlinkCode":"10067","mwlinkName":"Dorshona-Chuadanga","site1Code":"NA","site1Nname":"Dorshona","site1Latitude":23.526875,"site1Longitude":88.795883,"site1AltitudeFt":32.8084,"site2Code":"NA","site2Nname":"Chuadanga","site2Llatitude":23.643877,"site2Longitude":88.846886,"site2AltitudeFt":32.8084},
{"mwlinkCode":"10068","mwlinkName":"Dhamrai-Mascot","site1Code":"NA","site1Nname":"Dhamrai","site1Latitude":23.910555,"site1Longitude":90.219856,"site1AltitudeFt":32.8084,"site2Code":"NA","site2Nname":"Mascot","site2Llatitude":23.874201,"site2Longitude":90.399918,"site2AltitudeFt":32.8084},
{"mwlinkCode":"10069","mwlinkName":"Ishwardi-Afaz Plaza, Pabna","site1Code":"NA","site1Nname":"Ishwardi","site1Latitude":24.126997,"site1Longitude":89.064568,"site1AltitudeFt":32.8084,"site2Code":"NA","site2Nname":"Afaz Plaza, Pabna","site2Llatitude":24.007252,"site2Longitude":89.239288,"site2AltitudeFt":32.8084},
{"mwlinkCode":"10070","mwlinkName":"Pakundia-Karimganj","site1Code":"NA","site1Nname":"Pakundia","site1Latitude":24.32663,"site1Longitude":90.679131,"site1AltitudeFt":32.8084,"site2Code":"NA","site2Nname":"Karimganj","site2Llatitude":24.467674,"site2Longitude":90.868599,"site2AltitudeFt":32.8084},
{"mwlinkCode":"10071","mwlinkName":"CK_GhoshRoad-Maskanda","site1Code":"NA","site1Nname":"CK_GhoshRoad","site1Latitude":24.756126,"site1Longitude":90.405647,"site1AltitudeFt":32.8084,"site2Code":"NA","site2Nname":"Maskanda","site2Llatitude":24.740793,"site2Longitude":90.40712,"site2AltitudeFt":32.8084},
{"mwlinkCode":"10072","mwlinkName":"Akhalia-Laladighirpar","site1Code":"NA","site1Nname":"Akhalia","site1Latitude":24.909103,"site1Longitude":91.838676,"site1AltitudeFt":32.8084,"site2Code":"NA","site2Nname":"Laladighirpar","site2Llatitude":24.894939,"site2Longitude":91.854591,"site2AltitudeFt":32.8084},
{"mwlinkCode":"10073","mwlinkName":"Chatak-Gobindaganj Notun Bazar","site1Code":"NA","site1Nname":"Chatak","site1Latitude":25.036669,"site1Longitude":91.664902,"site1AltitudeFt":32.8084,"site2Code":"NA","site2Nname":"Gobindaganj Notun Bazar","site2Llatitude":24.928242,"site2Longitude":91.6866,"site2AltitudeFt":32.8084},
{"mwlinkCode":"10074","mwlinkName":"Komolganj-Shamshernagar","site1Code":"NA","site1Nname":"Komolganj","site1Latitude":24.349058,"site1Longitude":91.841896,"site1AltitudeFt":32.8084,"site2Code":"NA","site2Nname":"Shamshernagar","site2Llatitude":24.382008,"site2Longitude":91.902122,"site2AltitudeFt":32.8084},
{"mwlinkCode":"10075","mwlinkName":"Wahidpur-Sitakundu","site1Code":"NA","site1Nname":"Wahidpur","site1Latitude":22.688042,"site1Longitude":91.622093,"site1AltitudeFt":32.8084,"site2Code":"NA","site2Nname":"Sitakundu","site2Llatitude":22.618687,"site2Longitude":91.658592,"site2AltitudeFt":32.8084},
{"mwlinkCode":"10076","mwlinkName":"Isapur-Taukirhat, Fatikchari","site1Code":"NA","site1Nname":"Isapur","site1Latitude":22.510338,"site1Longitude":91.840462,"site1AltitudeFt":32.8084,"site2Code":"NA","site2Nname":"Taukirhat, Fatikchari","site2Llatitude":22.575834,"site2Longitude":91.860291,"site2AltitudeFt":32.8084},
{"mwlinkCode":"10077","mwlinkName":"Bancharampur-Ramchandrapur","site1Code":"NA","site1Nname":"Bancharampur","site1Latitude":23.78027,"site1Longitude":90.79409,"site1AltitudeFt":32.8084,"site2Code":"NA","site2Nname":"Ramchandrapur","site2Llatitude":23.71925,"site2Longitude":90.881355,"site2AltitudeFt":32.8084},
{"mwlinkCode":"10078","mwlinkName":"Kachua-Shahrasti","site1Code":"NA","site1Nname":"Kachua","site1Latitude":23.343086,"site1Longitude":90.894562,"site1AltitudeFt":32.8084,"site2Code":"NA","site2Nname":"Shahrasti","site2Llatitude":23.224764,"site2Longitude":90.949692,"site2AltitudeFt":32.8084},
{"mwlinkCode":"10079","mwlinkName":"Goalondo-Manikganj","site1Code":"NA","site1Nname":"Goalondo","site1Latitude":23.728477,"site1Longitude":89.757362,"site1AltitudeFt":32.8084,"site2Code":"NA","site2Nname":"Manikganj","site2Llatitude":23.87011,"site2Longitude":89.99913,"site2AltitudeFt":32.8084},
{"mwlinkCode":"10080","mwlinkName":"Mirzapur-Shafipur","site1Code":"NA","site1Nname":"Mirzapur","site1Latitude":24.104092,"site1Longitude":90.097725,"site1AltitudeFt":32.8084,"site2Code":"NA","site2Nname":"Shafipur","site2Llatitude":24.024378,"site2Longitude":90.277588,"site2AltitudeFt":32.8084},
{"mwlinkCode":"10081","mwlinkName":"Senpara_Outdoor_-Ibrahimpur","site1Code":"NA","site1Nname":"Senpara_Outdoor_","site1Latitude":23.800467,"site1Longitude":90.378471,"site1AltitudeFt":32.8084,"site2Code":"NA","site2Nname":"Ibrahimpur","site2Llatitude":23.795675,"site2Longitude":90.383286,"site2AltitudeFt":32.8084},
{"mwlinkCode":"10082","mwlinkName":"Sarulia-Kanchpur","site1Code":"NA","site1Nname":"Sarulia","site1Latitude":23.714853,"site1Longitude":90.49324,"site1AltitudeFt":32.8084,"site2Code":"NA","site2Nname":"Kanchpur","site2Llatitude":23.712099,"site2Longitude":90.518204,"site2AltitudeFt":32.8084},
{"mwlinkCode":"10083","mwlinkName":"Lalbagh-Keraniganj","site1Code":"NA","site1Nname":"Lalbagh","site1Latitude":23.719685,"site1Longitude":90.389915,"site1AltitudeFt":32.8084,"site2Code":"NA","site2Nname":"Keraniganj","site2Llatitude":23.695158,"site2Longitude":90.397141,"site2AltitudeFt":32.8084},
{"mwlinkCode":"10084","mwlinkName":"Tikatuli-RK Mission Road","site1Code":"NA","site1Nname":"Tikatuli","site1Latitude":23.719173,"site1Longitude":90.421005,"site1AltitudeFt":32.8084,"site2Code":"NA","site2Nname":"RK Mission Road","site2Llatitude":23.720629,"site2Longitude":90.427528,"site2AltitudeFt":32.8084},
{"mwlinkCode":"10085","mwlinkName":"Gulshan 104(Outdoor)-Shahajadpur","site1Code":"NA","site1Nname":"Gulshan 104(Outdoor)","site1Latitude":23.789762,"site1Longitude":90.420441,"site1AltitudeFt":32.8084,"site2Code":"NA","site2Nname":"Shahajadpur","site2Llatitude":23.794456,"site2Longitude":90.425163,"site2AltitudeFt":32.8084},
{"mwlinkCode":"10086","mwlinkName":"Tipu Sultan-Tikatuli","site1Code":"NA","site1Nname":"Tipu Sultan","site1Latitude":23.714073,"site1Longitude":90.417442,"site1AltitudeFt":32.8084,"site2Code":"NA","site2Nname":"Tikatuli","site2Llatitude":23.719173,"site2Longitude":90.421005,"site2AltitudeFt":32.8084},
{"mwlinkCode":"10087","mwlinkName":"Nolta-Satkhira","site1Code":"NA","site1Nname":"Nolta","site1Latitude":22.511681,"site1Longitude":89.014381,"site1AltitudeFt":32.8084,"site2Code":"NA","site2Nname":"Satkhira","site2Llatitude":22.712126,"site2Longitude":89.07032,"site2AltitudeFt":32.8084},
{"mwlinkCode":"10088","mwlinkName":"Sailakupa-Sripur","site1Code":"NA","site1Nname":"Sailakupa","site1Latitude":23.685738,"site1Longitude":89.245811,"site1AltitudeFt":32.8084,"site2Code":"NA","site2Nname":"Sripur","site2Llatitude":23.591291,"site2Longitude":89.395416,"site2AltitudeFt":32.8084},
{"mwlinkCode":"10089","mwlinkName":"Gangni-Alamdanga","site1Code":"NA","site1Nname":"Gangni","site1Latitude":23.896896,"site1Longitude":88.754158,"site1AltitudeFt":32.8084,"site2Code":"NA","site2Nname":"Alamdanga","site2Llatitude":23.75985,"site2Longitude":88.944466,"site2AltitudeFt":32.8084},
{"mwlinkCode":"10090","mwlinkName":"Dorshona-Kotchandpur","site1Code":"NA","site1Nname":"Dorshona","site1Latitude":23.526875,"site1Longitude":88.795883,"site1AltitudeFt":32.8084,"site2Code":"NA","site2Nname":"Kotchandpur","site2Llatitude":23.40723,"site2Longitude":89.009354,"site2AltitudeFt":32.8084},
{"mwlinkCode":"10091","mwlinkName":"Jamalpur Bttb-Sherpur","site1Code":"NA","site1Nname":"Jamalpur Bttb","site1Latitude":24.928268,"site1Longitude":89.945335,"site1AltitudeFt":32.8084,"site2Code":"NA","site2Nname":"Sherpur","site2Llatitude":25.014986,"site2Longitude":90.017746,"site2AltitudeFt":32.8084},
{"mwlinkCode":"10092","mwlinkName":"Thakurgaon Road-Thakurgaon","site1Code":"NA","site1Nname":"Thakurgaon Road","site1Latitude":26.043108,"site1Longitude":88.425171,"site1AltitudeFt":32.8084,"site2Code":"NA","site2Nname":"Thakurgaon","site2Llatitude":26.034077,"site2Longitude":88.462563,"site2AltitudeFt":32.8084},
{"mwlinkCode":"10093","mwlinkName":"Jamil complex-Saistaganj Backbone","site1Code":"NA","site1Nname":"Jamil complex","site1Latitude":24.370863,"site1Longitude":91.417168,"site1AltitudeFt":32.8084,"site2Code":"NA","site2Nname":"Saistaganj Backbone","site2Llatitude":24.277008,"site2Longitude":91.470215,"site2AltitudeFt":32.8084},
{"mwlinkCode":"10094","mwlinkName":"Aungaria-Damuddya","site1Code":"NA","site1Nname":"Aungaria","site1Latitude":23.192169,"site1Longitude":90.322021,"site1AltitudeFt":32.8084,"site2Code":"NA","site2Nname":"Damuddya","site2Llatitude":23.145676,"site2Longitude":90.448593,"site2AltitudeFt":32.8084},
{"mwlinkCode":"10095","mwlinkName":"Banierchar backbone 75m-Shibchar backbone 75m","site1Code":"NA","site1Nname":"Banierchar backbone 75m","site1Latitude":23.2185,"site1Longitude":89.981392,"site1AltitudeFt":32.8084,"site2Code":"NA","site2Nname":"Shibchar backbone 75m","site2Llatitude":23.401972,"site2Longitude":90.159859,"site2AltitudeFt":32.8084},
{"mwlinkCode":"10096","mwlinkName":"Wahidpur-Fauzdarhat","site1Code":"NA","site1Nname":"Wahidpur","site1Latitude":22.688042,"site1Longitude":91.622093,"site1AltitudeFt":32.8084,"site2Code":"NA","site2Nname":"Fauzdarhat","site2Llatitude":22.403667,"site2Longitude":91.751358,"site2AltitudeFt":32.8084},
{"mwlinkCode":"10097","mwlinkName":"Ispahani Corner-Azad Bhaban","site1Code":"NA","site1Nname":"Ispahani Corner","site1Latitude":22.347488,"site1Longitude":91.818909,"site1AltitudeFt":32.8084,"site2Code":"NA","site2Nname":"Azad Bhaban","site2Llatitude":22.344572,"site2Longitude":91.834023,"site2AltitudeFt":32.8084},
{"mwlinkCode":"10098","mwlinkName":"Potiya 2 (Amjurhat)-Chanda Market","site1Code":"NA","site1Nname":"Potiya 2 (Amjurhat)","site1Latitude":22.302832,"site1Longitude":91.950356,"site1AltitudeFt":32.8084,"site2Code":"NA","site2Nname":"Chanda Market","site2Llatitude":22.298355,"site2Longitude":91.971588,"site2AltitudeFt":32.8084},
{"mwlinkCode":"10099","mwlinkName":"Fazilkharhat-Chaturi, Anwara","site1Code":"NA","site1Nname":"Fazilkharhat","site1Latitude":22.265047,"site1Longitude":91.869682,"site1AltitudeFt":32.8084,"site2Code":"NA","site2Nname":"Chaturi, Anwara","site2Llatitude":22.232971,"site2Longitude":91.87252,"site2AltitudeFt":32.8084},
{"mwlinkCode":"10100","mwlinkName":"Brindabanhat, Fatikchar-Fatikchori","site1Code":"NA","site1Nname":"Brindabanhat, Fatikchar","site1Latitude":22.712723,"site1Longitude":91.775612,"site1AltitudeFt":32.8084,"site2Code":"NA","site2Nname":"Fatikchori","site2Llatitude":22.686016,"site2Longitude":91.791351,"site2AltitudeFt":32.8084}